ID,CODIGO,DESCRIPCION,LATITUD,LONGITUD,DIRECCION,CP,POBLACION,PROVINCIA,PAIS
1,1003,ARAHAL,37.2680810,-5.5485140,"C/ Virgen de los Dolores, S/N",41600,ARAHAL,SEVILLA,ESPAÑA
2,1005,MARCHENA,37.3342820,-5.4255190,"Avda. Maestro Santos Rúano, 8",41620,MARCHENA,SEVILLA,ESPAÑA
3,1007,OSUNA,37.2338990,-5.1150260,"Avda. Estación Ferrocarril, S/N",41640,OSUNA,SEVILLA,ESPAÑA
4,1009,PEDRERA,37.2223960,-4.8935190,"C/ Manuel Aranda, 3",41566,PEDRERA,SEVILLA,ESPAÑA
5,2002,PUENTE GENIL-HERRERA,37.3579000,-4.8216380,Ctra. A-318 - Km. 9 - Entre los Pueblos de Puente Genil (Cordoba) y Herrera (Sevilla),14500,PUENTE GENIL,CÓRDOBA,ESPAÑA
6,2003,ANTEQUERA-SANTA ANA,37.0698810,-4.7190140,"Ctra. Ma - 5406 - Estación Ferrocarril, S/N",29540,ANTEQUERA,MÁLAGA,ESPAÑA
7,2030,ANTEQUERA AV,37.0334437,-4.5612901,Ctra A-7281 Antigua Carretera de Córdoba S/N,29200,ANTEQUERA,MÁLAGA,ESPAÑA
8,3001,MENGÍBAR-ARTICHUELA,37.9782190,-3.8033080,"C/ Camino Estación Ferrocarril, S/N",23620,MENGÍBAR,JAÉN,ESPAÑA
9,3003,GRANENA (APD-CGD),37.8477120,-3.7653990,,,JAÉN,JAÉN,ESPAÑA
10,3100,JAÉN,37.7798270,-3.7907980,"Pla. de Jaen Por la Paz, 1",23007,JAÉN,JAÉN,ESPAÑA
11,3208,CUENCA-FERNANDO ZÓBEL,40.0351920,-2.1444100,"Avda. Cerro de la Estrella, S/N --- N-320 - Circunvalacion de Cuenca",16004,CUENCA,CUENCA,ESPAÑA
12,3213,REQUENA-UTIEL,39.5198340,-1.1276010,Autovia A3 - Salida 285,46340,REQUENA,VALENCIA/VALÈNCIA,ESPAÑA
17,4007,GUADALAJARA-YEBES,40.5873150,-3.1243010,"Ctra. N - 320 --- Sacedon-Cuenca, Km 268",19000,YEBES,GUADALAJARA,ESPAÑA
20,4307,FIGUERES-VILAFANT,42.2647710,2.94354700,"Avda. Puig Grau, S/N",17740,VILAFANT,GIRONA,ESPAÑA
21,5000,GRANADA,37.1840380,-3.6091540,"Avda. de los Andaluces, S/N",18014,GRANADA,GRANADA,ESPAÑA
22,5012,LOJA,37.1753720,-4.1348410,"C/ Fuente Don Pedro, S/N",18300,LOJA,GRANADA,ESPAÑA
23,5013,LOJA-SAN FRANCISCO,37.1748680,-4.1494790,"Plaza Estacion Ferrocarril, 56",18300,LOJA,GRANADA,ESPAÑA
24,5019,ANTEQUERA-CIUDAD,37.0281710,-4.5609110,"Barriada Estacion, S/N",29200,ANTEQUERA,MÁLAGA,ESPAÑA
509,13003,IZARRA,42.9514090,-2.9007550,,,URKABUSTAIZ,ARABA/ÁLAVA,ESPAÑA
415,8004,SEGOVIA-GUIOMAR,40.9105770,-4.0945640,"Paseo Campos de Castilla, S/N",40006,SEGOVIA,SEGOVIA,ESPAÑA
416,8223,VIGO URZAIZ,42.2341890,-8.7137280,Rúa Vía Norte S/N,36201,VIGO,PONTEVEDRA,ESPAÑA
417,8224,REDONDELA AV,42.2860050,-8.6194020,"Estrada de Pazos, 10",36818,REDONDELA,PONTEVEDRA,ESPAÑA
418,8240,MEDINA DEL CAMPO AV,41.3174590,-4.9100710,"Ctra. Vp-8904 de las Salinas, Km 1,500",47400,MEDINA DEL CAMPO,VALLADOLID,ESPAÑA
419,8247,SANABRIA AV,42.0450532,-6.5631319,"Carretera N-525 P.k. 78+100,  Polígono 34 Parcela 9006",49320,PUEBLA DE SANABRIA,ZAMORA,ESPAÑA
420,8251,A GUDIÑA-PORTA DE GALICIA,42.0635401,-7.1355604,"Rúa Viana, S/N",32540,GUDIÑA (A),OURENSE,ESPAÑA
436,10207,LAS NAVAS DEL MARQUÉS,40.5892050,-4.3622590,"Avda. Estación Ferrocarril, S/N",5230,NAVAS DEL MARQUÉS (LAS),ÁVILA,ESPAÑA
437,10208,NAVALPERAL,40.5911520,-4.4083820,"Avda. Estación Ferrocarril, S/N",5240,NAVALPERAL DE PINARES,ÁVILA,ESPAÑA
438,10209,EL PIMPOLLAR,40.5675870,-4.2835410,"C/ Estación Ferrocarril, S/N",28296,SANTA MARÍA DE LA ALAMEDA,MADRID,ESPAÑA
439,10300,HERRADÓN-LA CAÑADA,40.5992750,-4.4950390,"Avda. Estación Ferrocarril, S/N",5294,HERRADÓN DE PINARES,ÁVILA,ESPAÑA
440,10302,GUIMORCONDO,40.6490620,-4.6149870,"Avda. Estación Ferrocarril, S/N",5004,ÁVILA,ÁVILA,ESPAÑA
441,10400,ÁVILA,40.6572550,-4.6833120,"Paseo Estación Ferrocarril, S/N",5001,ÁVILA,ÁVILA,ESPAÑA
442,10409,ARÉVALO,41.0471230,-4.7019880,"C/ Deposito, S/N",5200,ARÉVALO,ÁVILA,ESPAÑA
443,10500,MEDINA DEL CAMPO,41.3176170,-4.9099230,"Avda. Estación Ferrocarril, 27",47400,MEDINA DEL CAMPO,VALLADOLID,ESPAÑA
444,10501,POZALDEZ,41.3679200,-4.8360010,"C/ Estación Ferrocarril, S/N",47220,POZALDEZ,VALLADOLID,ESPAÑA
445,10502,MATAPOZUELOS,41.4227940,-4.8010250,"C/ Camino Estación Ferrocarril, S/N",47230,MATAPOZUELOS,VALLADOLID,ESPAÑA
446,10503,VALDESTILLAS,41.4887290,-4.7729370,"Avda. Valladolid, S/N",47240,VALDESTILLAS,VALLADOLID,ESPAÑA
447,10504,VIANA,41.5240700,-4.7544890,"C/ Estación Ferrocarril, S/N",47150,VIANA DE CEGA,VALLADOLID,ESPAÑA
448,10600,VALLADOLID-CAMPO GRANDE,41.6421670,-4.7269860,"C/ Recondo, S/N",47007,VALLADOLID,VALLADOLID,ESPAÑA
449,10602,CABEZÓN DEL PISUERGA,41.7372760,-4.6512940,"C/ Estación Ferrocarril, S/N",47260,CABEZÓN DE PISUERGA,VALLADOLID,ESPAÑA
450,10603,CORCOS-AGUILAREJO,41.7664460,-4.6234850,"Camino Estación Ferrocarril, S/N",47281,CORCOS,VALLADOLID,ESPAÑA
451,10604,CUBILLAS DE SANTA MARTA,41.8088610,-4.5797540,"C/ Camino del Apeadero, S/N",47290,CUBILLAS DE SANTA MARTA,VALLADOLID,ESPAÑA
452,10605,DUEÑAS,41.8704800,-4.5412160,"C/ Estación Ferrocarril, 7",34210,DUEÑAS,PALENCIA,ESPAÑA
453,10610,VALLADOLID UNIVERSIDAD,41.6602570,-4.7040370,"Ctra. Juan Carlos I, S/N",47011,VALLADOLID,VALLADOLID,ESPAÑA
454,11000,VENTA DE BAÑOS,41.9173600,-4.4958440,"C/ Linea Ferrocarril, 3 - 7",34200,VENTA DE BAÑOS,PALENCIA,ESPAÑA
455,11004,MAGAZ,41.9765610,-4.4321140,"Avda. Virgen de Villaverde, S/N",34220,MAGAZ DE PISUERGA,PALENCIA,ESPAÑA
456,11006,QUINTANA DEL PUENTE,42.0799740,-4.1985800,"C/ Aselmo Arenillas, S/N",34250,QUINTANA DEL PUENTE,PALENCIA,ESPAÑA
457,11009,VILLAQUIRÁN,42.2157170,-3.9993960,"Ctra. Estación Ferrocarril, S/N",9118,VILLAQUIRÁN DE LOS INFANTES,BURGOS,ESPAÑA
458,11014,BURGOS-ROSA MANZANO,42.3711970,-3.6663080,"Avda. Principe de Asturias, S/N",9006,BURGOS,BURGOS,ESPAÑA
459,11109,BRIVIESCA,42.5427650,-3.3192870,"C/ Vía Ferrea, S/N",9240,BRIVIESCA,BURGOS,ESPAÑA
460,11111,PANCORBO,42.6304860,-3.1123070,"C/ Estación Ferrocarril, 2",9280,PANCORBO,BURGOS,ESPAÑA
466,11209,ESTÍBALIZ-OREITIA,42.8539650,-2.5601630,,,VITORIA-GASTEIZ,ARABA/ÁLAVA,ESPAÑA
471,11303,ZEGAMA-OTZAURTE (APT),42.9394120,-2.2635810,,,ZEGAMA,GIPUZKOA,ESPAÑA
508,12100,SEGOVIA,40.9340300,-4.1136500,"C/ Obispo Quesada, 1",40006,SEGOVIA,SEGOVIA,ESPAÑA
492,11602,HENDAYA,43.3522980,-1.7830810,"Boulevard Du General de Gaulle, S/N",,IRUN,CEUTA,ESPAÑA
498,12007,TABLADA,40.7056480,-4.1253100,"Avda. Valle del Guadarrama, S/N",28480,GUADARRAMA,MADRID,ESPAÑA
499,12008,GUDILLOS,40.7169140,-4.1576810,"Camino de Gudillos, S/N",40400,ESPINAR (EL),SEGOVIA,ESPAÑA
500,12009,SAN RAFAEL,40.7149440,-4.1814300,"Barrio de San Rafael, S/N",40410,CASTRO DEL RÍO,SEGOVIA,ESPAÑA
501,12010,EL ESPINAR,40.7408520,-4.1894820,"C/ Estación Ferrocarril, S/N",40400,CASTRO DEL RÍO,SEGOVIA,ESPAÑA
502,12011,LOS ÁNGELES DE SAN RAFAEL,40.7779090,-4.2069330,"Urbanizacion los Angeles de San Rafael, S/N",40424,CASTRO DEL RÍO,SEGOVIA,ESPAÑA
503,12012,OTERO-HERREROS,40.8009700,-4.2035040,"Barrio Estación Ferrocarril, S/N",40422,OTERO DE HERREROS,SEGOVIA,ESPAÑA
504,12013,ORTIGOSA DEL MONTE,40.8327710,-4.1680940,"Avda. Estación Ferrocarril, S/N",40421,ORTIGOSA DEL MONTE,SEGOVIA,ESPAÑA
505,12014,NAVAS DE RIOFRÍO-LA LOSA,40.8566730,-4.1411030,"C/ Estación Ferrocarril, S/N",40420,NAVAS DE RIOFRÍO,SEGOVIA,ESPAÑA
515,14100,PALENCIA,42.0157110,-4.5341350,"Plaza de los Jardinillos S/N, Palencia",34005,PALENCIA,PALENCIA,ESPAÑA
516,14101,MONZÓN DE CAMPOS,42.1055380,-4.5016770,"C/ Estación de Ferrocarril, S/N",34410,MONZÓN DE CAMPOS,PALENCIA,ESPAÑA
517,14102,AMUSCO,42.1780190,-4.4807430,"Ctra. P- 983 - Estación Ferrocarril, S/N",34420,AMUSCO,PALENCIA,ESPAÑA
518,14103,PIÑA,42.2117470,-4.4346890,"C/ Estación Ferrocarril, S/N",34430,PIÑA DE CAMPOS,PALENCIA,ESPAÑA
519,14104,FRÓMISTA,42.2649000,-4.4024330,"C/ las Huesas, S/N",34440,FRÓMISTA,PALENCIA,ESPAÑA
520,14105,MARCILLA DE CAMPOS,42.3173930,-4.3797130,,,MARCILLA DE CAMPOS,PALENCIA,ESPAÑA
521,14107,OSORNO,42.4150770,-4.3573670,"Avda. Calvo Sotelo, S/N",34460,OSORNO LA MAYOR,PALENCIA,ESPAÑA
522,14108,ESPINOSA DE VILLAGONZALO,42.4523730,-4.3678110,"C/ Apeadero, S/N",34491,ESPINOSA DE VILLAGONZALO,PALENCIA,ESPAÑA
523,14111,HERRERA DE PISUERGA,42.5984770,-4.3166830,"Ctra. C- 627 --- Estación de Ferrocarril, S/N",34400,HERRERA DE PISUERGA,PALENCIA,ESPAÑA
524,14112,ALAR DEL REY,42.6568370,-4.3113720,"C/ Estación Ferrocarril, S/N",34480,ALAR DEL REY,PALENCIA,ESPAÑA
525,14113,MAVE,42.7237260,-4.2761600,"Pza. Estación Ferrocarril, S/N",34492,AGUILAR DE CAMPOO,PALENCIA,ESPAÑA
526,14114,AGUILAR DE CAMPOO,42.7853620,-4.2338990,"Barrio Estación Ferrocarril, 18 - 19",34800,AGUILAR DE CAMPOO,PALENCIA,ESPAÑA
527,14115,QUINTANILLA DE LAS TORRES,42.8190300,-4.2027530,"C/ Estación Ferrocarril, S/N",34811,POMAR DE VALDIVIA,PALENCIA,ESPAÑA
528,14116,EL CARRIÓN (APD),42.1163504,-4.4963210,,,MONZÓN DE CAMPOS,PALENCIA,ESPAÑA
529,14117,EL CARRIÓN,42.1166417,-4.500692,"C/ Camino Becerril, S/N",34410,MONZÓN DE CAMPOS,PALENCIA,ESPAÑA
530,14200,MATAPORQUERA,42.8709010,-4.1654060,C/  la Constitucion   S/N- Mataporquera (Valdeolea),39410,VALDEOLEA,CANTABRIA,ESPAÑA
549,14229,ZURITA,43.3497231,-3.9335829,,,PIÉLAGOS,CANTABRIA,ESPAÑA
558,15001,GRIJOTA,42.0492250,-4.5839540,"Paseo Estación Ferrocarril, S/N",34192,GRIJOTA,PALENCIA,ESPAÑA
559,15003,BECERRIL,42.1047060,-4.6471200,"Ctra. P - 953 --- Estación Ferrocarril, S/N",34310,BECERRIL DE CAMPOS,PALENCIA,ESPAÑA
560,15004,PAREDES DE NAVA,42.1506940,-4.6975990,"Avda. Berruguete, 38",34300,PAREDES DE NAVA,PALENCIA,ESPAÑA
561,15006,CISNEROS,42.1911200,-4.8502490,"Ctra. P - 932 --- Estación Ferrocarril, S/N",34320,CISNEROS,PALENCIA,ESPAÑA
562,15007,VILLADA,42.2452380,-4.9705890,"C/ Estación Norte, S/N",34340,VILLADA,PALENCIA,ESPAÑA
563,15008,GRAJAL,42.3232460,-5.0133810,"C/ Estación Ferrocarril, S/N",24340,GRAJAL DE CAMPOS,LEÓN,ESPAÑA
564,15009,SAHAGÚN,42.3693290,-5.0226670,"C/ Tras Estación, S/N",24320,SAHAGÚN,LEÓN,ESPAÑA
565,15012,EL BURGO RANERO,42.4257530,-5.2085920,"C/ Senda Estación Ferrocarril, S/N",24343,BURGO RANERO (EL),LEÓN,ESPAÑA
566,15014,SANTAS MARTAS,42.4600040,-5.3867770,"C/ Estación Ferrocarril, 10-16",24330,SANTAS MARTAS,LEÓN,ESPAÑA
567,15015,PALANQUINOS,42.4607160,-5.4975840,"Pza. Santa Rita, 10",24225,VILLANUEVA DE LAS MANZANAS,LEÓN,ESPAÑA
568,15017,TORNEROS (APT),42.5167560,-5.5599880,,,ONZONILLA,LEÓN,ESPAÑA
569,15100,LEÓN,42.5960480,-5.5824280,"Avda. Palencia, S/N",24009,LEÓN,LEÓN,ESPAÑA
570,15104,CUADROS,42.7125640,-5.6359760,,,CUADROS,LEÓN,ESPAÑA
571,15106,LA ROBLA,42.8044540,-5.6262550,"C/ la Estación, S/N",24640,ROBLA (LA),LEÓN,ESPAÑA
572,15108,LA POLA DE GORDÓN,42.8540990,-5.6745240,"C/ Capitan Lozano, 7",24600,POLA DE GORDÓN (LA),LEÓN,ESPAÑA
573,15109,SANTA LUCÍA,42.8751500,-5.6396130,"C/ Reino de Leon, 1",24650,POLA DE GORDÓN (LA),LEÓN,ESPAÑA
574,15110,CIÑERA,42.8893560,-5.6404600,,,POLA DE GORDÓN (LA),LEÓN,ESPAÑA
575,15112,VILLAMANÍN,42.9367100,-5.6576370,"C/ Estación Ferrocarril, 5",24680,VILLAMANÍN,LEÓN,ESPAÑA
576,15113,BUSDONGO,42.9844950,-5.7053910,"Ctra. N - 630 --- Estación Ferrocarril, 1",24690,VILLAMANÍN,LEÓN,ESPAÑA
577,15116,LINARES-CONGOSTINAS,43.1017430,-5.7721620,"Camino Aspr - 92 --- Estación Ferrocarril, S/N",33694,LENA,ASTURIAS,ESPAÑA
613,17200,ARANDA DE DUERO-MONTECILLO,41.6686160,-3.6968140,,,ARANDA DE DUERO,BURGOS,ESPAÑA
621,20002,QUINTANA-RANEROS,42.5500850,-5.6377890,"C/ Guzman El Bueno, S/N",24391,SANTOVENIA DE LA VALDONCINA,LEÓN,ESPAÑA
622,20003,VILLADANGOS,42.5217430,-5.7454200,,,VILLADANGOS DEL PÁRAMO,LEÓN,ESPAÑA
743,31211,BAÑOS DE MOLGAS,42.2376290,-7.6830600,,,BAÑOS DE MOLGAS,OURENSE,ESPAÑA
623,20005,VEGUELLINA,42.4335000,-5.8875600,"Paseo Estación Ferrocarril, 34",24350,VILLAREJO DE ÓRBIGO,LEÓN,ESPAÑA
624,20006,BARRIENTOS,42.4143010,-5.9639880,"C/ Santa Ana, 20",24394,VALDERREY,LEÓN,ESPAÑA
625,20007,NISTAL,42.4244620,-6.0080300,"C/ Antonio Aceña, 21",24395,SAN JUSTO DE LA VEGA,LEÓN,ESPAÑA
626,20008,VILLAVANTE,42.4645800,-5.8389140,"C/ El Palacio, 32",24393,SANTA MARINA DEL REY,LEÓN,ESPAÑA
627,20100,ASTORGA,42.4594890,-6.0472120,"Avda. Estación Ferrocarril, S/N",24700,ASTORGA,LEÓN,ESPAÑA
628,20101,OTERO DE ESCARPIZO,42.5137980,-6.0550570,,,VILLAOBISPO DE OTERO,LEÓN,ESPAÑA
629,20102,VEGA-MAGAZ,42.5537600,-6.0682670,"C/ Camino Estación Ferrocarril, S/N",24396,MAGAZ DE CEPEDA,LEÓN,ESPAÑA
630,20103,PORQUEROS,42.5989350,-6.1082380,"C/ Estación Ferrocarril, 5",24397,MAGAZ DE CEPEDA,LEÓN,ESPAÑA
631,20104,BRAÑUELAS,42.6326310,-6.2010020,"Travesia Fanal, 5",24360,VILLAGATÓN,LEÓN,ESPAÑA
632,20106,LA GRANJA,42.6148740,-6.2824950,"Avda. San Vicente, S/N",24378,TORRE DEL BIERZO,LEÓN,ESPAÑA
633,20109,TORRE DEL BIERZO,42.5955780,-6.3290830,"Paseo Estación Ferrocarril, S/N",24370,TORRE DEL BIERZO,LEÓN,ESPAÑA
634,20111,BEMBIBRE,42.6095580,-6.4220480,"C/ Susana Gonzalez, 56",24300,BEMBIBRE,LEÓN,ESPAÑA
635,20112,VILLAVERDE DE LOS CESTOS,42.5981290,-6.5031120,,,CASTROPODAME,LEÓN,ESPAÑA
636,20113,SAN MIGUEL DE LAS DUEÑAS,42.5863920,-6.5237760,"C/ Estación Ferrocarril, 34",24398,CONGOSTO,LEÓN,ESPAÑA
637,20200,PONFERRADA,42.5454290,-6.6023760,"Avda. del Ferrocarril, 15",24400,PONFERRADA,LEÓN,ESPAÑA
638,20202,POSADA DEL BIERZO,42.5401530,-6.7151250,,,CARRACEDELO,LEÓN,ESPAÑA
639,20203,VILLADEPALOS,42.5368600,-6.7511090,"C/ Camino del Apeadero, S/N",24565,CARRACEDELO,LEÓN,ESPAÑA
640,20204,TORAL DE LOS VADOS,42.5410520,-6.7767030,"Pza. Estación Ferrocarril, S/N",24560,TORAL DE LOS VADOS,LEÓN,ESPAÑA
641,20206,LA BAROSA,42.4994480,-6.8256100,,,CARUCEDO,LEÓN,ESPAÑA
642,20207,COVAS,42.4753260,-6.8308780,"C/ Estación Ferrocarril, S/N",32141,RUBIÁ,OURENSE,ESPAÑA
643,20208,QUEREÑO,42.4207040,-6.8294860,"Rúa da Estación, S/N",32320,RUBIÁ,OURENSE,ESPAÑA
644,20209,PUMARES,42.4045330,-6.8590630,,,CARBALLEDA DE VALDEORRAS,OURENSE,ESPAÑA
645,20210,SOBRADELO,42.4148590,-6.9119510,"Ctra. de Entoma - Estación Ferrocarril, S/N",32330,CARBALLEDA DE VALDEORRAS,OURENSE,ESPAÑA
646,20211,O BARCO DE VALDEORRAS,42.4183010,-6.9850300,"Avda. Estación Ferrocarril, S/N",32300,BARCO DE VALDEORRAS (O),OURENSE,ESPAÑA
647,20212,VILAMARTÍN DE VALDEORRAS,42.4118290,-7.0611850,"Pza. Miguel Estevez, S/N",32340,VILAMARTÍN DE VALDEORRAS,OURENSE,ESPAÑA
648,20213,A RÚA-PETÍN,42.3927600,-7.1132840,"Rúa Circunvalación, S/N",32350,RÚA (A),OURENSE,ESPAÑA
649,20214,MONTEFURADO,42.3940200,-7.1984000,"C/ San Miguel Montef, 4",27390,QUIROGA,LUGO,ESPAÑA
650,20216,SAN CLODIO-QUIROGA,42.4652710,-7.2871980,"Rúa Do Ferrocarril, 31",27310,RIBAS DE SIL,LUGO,ESPAÑA
651,20218,A POBRA DO BROLLÓN,42.5336820,-7.4000880,"Avda. da Pobra, S/N",27331,POBRA DO BROLLÓN (A),LUGO,ESPAÑA
652,20300,MONFORTE DE LEMOS,42.5296820,-7.5035890,"Praza da Estación, S/N",27400,MONFORTE DE LEMOS,LUGO,ESPAÑA
653,20305,SARRIA,42.7840490,-7.4188220,"Rúa Ramon Cabanillas, 6",27600,SARRIA,LUGO,ESPAÑA
654,20306,PEDRELO-CÉLTIGOS,42.8329340,-7.3933290,"C/ Celtigos, 84",27617,SARRIA,LUGO,ESPAÑA
655,20309,LUGO,43.0152220,-7.5521760,"Pla. de Conde Fontao, S/N",27003,LUGO,LUGO,ESPAÑA
656,20310,RÁBADE,43.1213780,-7.6248350,"Praza de España, 23",27370,RÁBADE,LUGO,ESPAÑA
657,20311,BEGONTE,43.1491720,-7.6864170,,,BEGONTE,LUGO,ESPAÑA
658,20312,BAAMONDE,43.1734050,-7.7561280,"C/ Estación Ferrocarril, 8",27371,BEGONTE,LUGO,ESPAÑA
659,20313,PARGA,43.1636440,-7.8373830,"Avda. da Estación, 9",27380,GUITIRIZ,LUGO,ESPAÑA
660,20314,GUITIRIZ,43.1790580,-7.8950390,"C/ Estación Ferrocarril, 71",27300,GUITIRIZ,LUGO,ESPAÑA
661,20316,TEIXEIRO,43.1414110,-8.0376900,"C/ Camino Estación Ferrocarril, S/N",15310,CURTIS,"CORUÑA, A",ESPAÑA
662,20317,CURTIS,43.1272320,-8.1431550,"Praza de Compostela, 9",15310,CURTIS,"CORUÑA, A",ESPAÑA
663,20318,PIÑOI,43.1279220,-8.1634980,"C/ Estación Ferrocarril, S/N",15390,CESURAS,"CORUÑA, A",ESPAÑA
664,20319,CESURAS,43.1730730,-8.2005000,"Rúa Estación Ferrocarril, S/N",15391,CESURAS,"CORUÑA, A",ESPAÑA
665,20320,OZA DOS RÍOS,43.2187700,-8.1871110,"C/ Lois, 48",15380,OZA DOS RÍOS,"CORUÑA, A",ESPAÑA
666,20400,BETANZOS-INFESTA,43.2706980,-8.2258470,"Camino Real da Infesta, S/N",15319,BETANZOS,"CORUÑA, A",ESPAÑA
667,20402,CECEBRE,43.2879130,-8.3077670,"C/ Apeadeiro, S/N",15650,CAMBRE,"CORUÑA, A",ESPAÑA
668,20403,CAMBRE,43.2905020,-8.3521040,"Ctra. da Estación Ferrocarril, 47",15660,CAMBRE,"CORUÑA, A",ESPAÑA
669,20404,O BURGO-SANTIAGO,43.3178410,-8.3687500,"C/ Ramon Cabanillas, 8",15670,CULLEREDO,"CORUÑA, A",ESPAÑA
670,20410,ELVIÑA-UNIVERSIDADE,43.3352220,-8.4130610,"C/ Estación Ferrocarril, S/N",15190,CORUÑA (A),"CORUÑA, A",ESPAÑA
671,21001,BETANZOS-CIDADE,43.2841370,-8.2158740,"Rúa Arxentina, 10",15319,BETANZOS,"CORUÑA, A",ESPAÑA
672,21002,MIÑO,43.3494310,-8.2073130,"Pza. Estación Ferrocarril, S/N",15630,MIÑO,"CORUÑA, A",ESPAÑA
673,21003,PERBES,43.3781970,-8.2011060,"C/ A Cruz, 20",15608,MIÑO,"CORUÑA, A",ESPAÑA
674,21004,PONTEDEUME,43.4117970,-8.1804160,"Avda. Ferrol, 77",15614,PONTEDEUME,"CORUÑA, A",ESPAÑA
675,21005,CABANAS,43.4155850,-8.1688280,"Avda. Hilario Ruiz, S/N",15621,CABANAS,"CORUÑA, A",ESPAÑA
676,21006,FRANZA,43.4384480,-8.1976330,,,MUGARDOS,"CORUÑA, A",ESPAÑA
677,21007,BARALLOBRE,43.4628990,-8.1885860,"Rúa Pablo Ares Feal, 43",15528,FENE,"CORUÑA, A",ESPAÑA
678,21008,PERLÍO,43.4723090,-8.1748370,"Rúa Antonia Montero, 4",15500,FENE,"CORUÑA, A",ESPAÑA
679,21009,NEDA,43.4953510,-8.1609670,"Avda. Castelao, 47",15510,NEDA,"CORUÑA, A",ESPAÑA
681,21913,POLIGON INDUSTRIAL DEL SEGRE,41.6157446,0.6269556,,25191,LLEIDA,LLEIDA,ESPAÑA
682,22001,CANAVAL,42.4828820,-7.5877330,"Travesia Estación Ferrocarril, 19",27440,SOBER,LUGO,ESPAÑA
683,22002,AREAS,42.4577990,-7.6287900,"Ctra. Lu -P - 5902 - Estación Ferrocarril, S/N",27578,SOBER,LUGO,ESPAÑA
684,22003,SANTO ESTEVO DO SIL,42.4269210,-7.6616760,"Ctra. Lu-P-4103 - Estación Ferrocarril, S/N",27437,PANTÓN,LUGO,ESPAÑA
685,22004,SAN PEDRO DO SIL,42.4413530,-7.7041200,"Ctra. Lu-P-4104 - Estación Ferrocarril, S/N",27470,PANTÓN,LUGO,ESPAÑA
686,22005,OS PEARES,42.4514390,-7.7355230,"Ctra. Lu-P-1004 - Estación Ferrocarril, S/N",32440,PEROXA (A),OURENSE,ESPAÑA
687,22006,BARRA DE MIÑO,42.4010950,-7.8025670,"Rúa da Estación, 34-37",32950,COLES,OURENSE,ESPAÑA
688,22100,OURENSE,42.3503890,-7.8727770,"Avda. Marin, S/N",32001,OURENSE,OURENSE,ESPAÑA
689,22101,BARBANTES,42.3383760,-8.0117210,"Rúa da Estación, 1",32450,CENLLE,OURENSE,ESPAÑA
690,22102,RIBADAVIA,42.2931000,-8.1392610,"Rúa Baixada O Consello, S/N",32400,RIBADAVIA,OURENSE,ESPAÑA
691,22103,FILGUEIRA,42.2199170,-8.1847880,"Ctra. Po - 401 --- Estación Ferrocarril, S/N",36420,CRECENTE,PONTEVEDRA,ESPAÑA
692,22104,FRIEIRA,42.1548820,-8.2010360,"Ctra. Or - 412 --- Estación Ferrocarril, S/N",36428,CRECENTE,PONTEVEDRA,ESPAÑA
693,22105,POUSA-CRECENTE,42.1367050,-8.2348890,"C/ Pousa - Estación Ferrocarril, S/N",36493,CRECENTE,PONTEVEDRA,ESPAÑA
694,22106,ARBO,42.1070580,-8.3002470,"Rúa da Estación, 2",36430,ARBO,PONTEVEDRA,ESPAÑA
695,22107,SELA,42.0920920,-8.3559980,"Ctra. Po-400 Estación Ferrocarril, S/N",36494,ARBO,PONTEVEDRA,ESPAÑA
696,22108,AS NEVES,42.0754620,-8.4200740,"Ctra. Ep - 4203 --- Estación Ferrocarril, S/N",36440,NEVES (AS),PONTEVEDRA,ESPAÑA
697,22109,SALVATERRA,42.0816400,-8.4951410,"Rúa Marques de Viana, S/N",36450,SALVATERRA DE MIÑO,PONTEVEDRA,ESPAÑA
698,22110,CALDELAS,42.0558130,-8.5663430,"Ctra. Po - 404 --- Estación Ferrocarril, S/N",36729,TUI,PONTEVEDRA,ESPAÑA
699,22200,GUILLAREI,42.0656630,-8.6225300,"Pla. Estación Ferrocarril, S/N",36720,TUI,PONTEVEDRA,ESPAÑA
700,22201,O PORRIÑO,42.1641900,-8.6220200,"Rúa Estación Ferrocarril, 9",36400,PORRIÑO (O),PONTEVEDRA,ESPAÑA
701,22202,LOUREDO-VALOS,42.2343880,-8.5968340,,,MOS,PONTEVEDRA,ESPAÑA
702,22300,REDONDELA,42.2860050,-8.6194020,"Avenida de la Estación, S/N",36800,REDONDELA,PONTEVEDRA,ESPAÑA
703,22302,CHAPELA,42.2640640,-8.6752580,,,REDONDELA,PONTEVEDRA,ESPAÑA
704,22308,VIGO-GUIXAR,42.2392656,-8.7146089,"Rúa Areal, S/N",36201,VIGO,PONTEVEDRA,ESPAÑA
705,22401,TUI,42.0565340,-8.6428840,"Avda. la Concordia, 71",36715,TUI,PONTEVEDRA,ESPAÑA
706,22402,VALENÇA DO MINHO,42.0247340,-8.6397450,Avda. do Espanha,,TUI,PONTEVEDRA,ESPAÑA
707,23000,REDONDELA-PICOTA,42.2868660,-8.6071180,"Camiño Carrascal, 10",36800,REDONDELA,PONTEVEDRA,ESPAÑA
708,23001,CESANTES,42.3102580,-8.6165410,"C/ Estrada Praia de Cesantes, 80",36693,REDONDELA,PONTEVEDRA,ESPAÑA
709,23002,ARCADE,42.3405490,-8.6111780,"Rúa Rosalia de Castro, S/N",36690,SOUTOMAIOR,PONTEVEDRA,ESPAÑA
710,23004,PONTEVEDRA,42.4219690,-8.6355460,"Avda. de la Estación, S/N",36003,PONTEVEDRA,PONTEVEDRA,ESPAÑA
711,23005,PORTELA,42.5178010,-8.6546090,"Ctra. Ep-0506 - Estación Ferrocarril, S/N",36692,BARRO,PONTEVEDRA,ESPAÑA
712,23008,VILAGARCÍA DE AROUSA,42.6021890,-8.7625230,"Plaza da Estación, S/N Vilagarcía de Arousa (Pontevedra)",36600,VILAGARCÍA DE AROUSA,PONTEVEDRA,ESPAÑA
713,23009,CATOIRA,42.6721660,-8.7252910,"Praza Do Doctor Jose R. Vazquez, 1 --- Rúa da Estación, S/N",36612,CATOIRA,PONTEVEDRA,ESPAÑA
714,23010,PONTECESURES,42.7229850,-8.6521300,"Rúa Estación Ferrocarril, 2",36640,PONTECESURES,PONTEVEDRA,ESPAÑA
715,23011,PADRÓN,42.7389670,-8.6526140,"Camiño Luans, 45",15917,PADRÓN,"CORUÑA, A",ESPAÑA
716,23012,A ESCRAVITUDE,42.7847220,-8.6470990,,,PADRÓN,"CORUÑA, A",ESPAÑA
717,23013,OSEBE,42.8252980,-8.6158400,"Ctra. Dp-0205 - Estación Ferrocarril, S/N",15866,TEO,"CORUÑA, A",ESPAÑA
718,23018,PONTEVEDRA UNIVERSIDAD,42.4387499,-8.6304812,"Avda. Buenos Aires, 74 - Camino da Via - Estación Ferrocarril, S/N",36002,PONTEVEDRA,PONTEVEDRA,ESPAÑA
719,23021,PADRÓN BARBANZA,42.7389670,-8.6526140,"Ctra. Dp-3302 - Estación Ferrocarril, S/N",15980,PADRÓN,"CORUÑA, A",ESPAÑA
720,30000,MONFRAGÜE,39.9374640,-6.1009100,"Ctra. Estación Ferrocarril Malpartida, S/N",10680,MALPARTIDA DE PLASENCIA,CÁCERES,ESPAÑA
721,30002,PLASENCIA,40.0222820,-6.0993970,"C/ Alfonso Camargo, S/N",10600,PLASENCIA,CÁCERES,ESPAÑA
722,30100,SALAMANCA,40.9722350,-5.6489900,"Paseo de la Estación, 122",37004,SALAMANCA,SALAMANCA,ESPAÑA
723,30110,SALAMANCA-LA ALAMEDILLA,40.9667630,-5.6563660,"Paseo del Ferrocarril, S/N",37003,SALAMANCA,SALAMANCA,ESPAÑA
724,30200,ZAMORA,41.5158920,-5.7396750,"Ctra. de la Estación, S/N",49004,ZAMORA,ZAMORA,ESPAÑA
725,31002,NAVA DEL REY,41.3347160,-5.0768180,"C/ Juan Antonio Carmona, 5",47500,NAVA DEL REY,VALLADOLID,ESPAÑA
726,31006,TORO,41.5122010,-5.3849530,"Barrio Azucarera Duero - Ctra. Estación, 42",49800,TORO,ZAMORA,ESPAÑA
727,31104,CARBAJALES DE ALBA,41.6815420,-5.9719060,"Ctra. Za - P - 2439 --- Estación Ferrocarril, S/N",49160,CARBAJALES DE ALBA,ZAMORA,ESPAÑA
728,31106,FERRERUELA DE TÁBARA,41.7641060,-6.0739000,"C/ Apeadero, S/N",49550,FERRERUELA DE HUERVA,ZAMORA,ESPAÑA
729,31107,ABEJERA,41.8094200,-6.1418510,"Ctra. Za - 2450 - C/ Escuela - Estación Ferrocarril, S/N",49591,RIOFRÍO DE ALISTE,ZAMORA,ESPAÑA
730,31108,SARRACÍN DE ALISTE,41.8484970,-6.2051300,"Ctra. Za-P-1407 - Estación Ferrocarril, S/N",49591,RIOFRÍO DE ALISTE,ZAMORA,ESPAÑA
731,31109,CABAÑAS DE ALISTE,41.8545950,-6.2463500,"Travesia Piedras Cabañas, S/N",49592,SAN VICENTE DE LA CABEZA,ZAMORA,ESPAÑA
732,31112,LINAREJOS-PEDROSO,41.9469630,-6.4845410,"Ctra. Za - P - 2640 --- Estación Ferrocarril, S/N",49593,MANZANAL DE ARRIBA,ZAMORA,ESPAÑA
733,31200,PUEBLA DE SANABRIA,42.0457630,-6.6268480,"Ctra. Estación Ferrocarril, 24",49300,PUEBLA DE SANABRIA,ZAMORA,ESPAÑA
734,31201,PEDRALBA,42.0271330,-6.6966710,,,PEDRALBA DE LA PRADERÍA,ZAMORA,ESPAÑA
735,31203,LUBIÁN,42.0380420,-6.8942210,,,LUBIÁN,ZAMORA,ESPAÑA
736,31204,A MEZQUITA-VILAVELLA,42.0441810,-7.0196240,,,MEZQUITA (A),OURENSE,ESPAÑA
737,31205,A GUDIÑA,42.060644,-7.1337229,"Carretera N-525 - Beato Sebastian Aparicio, S/N",32540,GUDIÑA (A),OURENSE,ESPAÑA
738,31206,VILARIÑO DE CONSO.-A CAPELA,42.0700430,-7.2342180,,,VILARIÑO DE CONSO,OURENSE,ESPAÑA
739,31207,CASTRELO DO VAL-VERÍN-CAMPOBECERROS,42.0625880,-7.3333200,,,CASTRELO DO VAL,OURENSE,ESPAÑA
740,31208,LAZA-CERDEDELO,42.0879800,-7.4038620,,,LAZA,OURENSE,ESPAÑA
741,31209,A ALBERGUERÍA-PRADO,42.1255860,-7.5112920,,,VILAR DE BARRIO,OURENSE,ESPAÑA
742,31210,VILAR DE BARRIO/VILLAR DE BARRIO,42.1633480,-7.5986260,,,VILAR DE BARRIO,OURENSE,ESPAÑA
744,31212,PONTEAMBIA,42.2258960,-7.7191850,,,BAÑOS DE MOLGAS,OURENSE,ESPAÑA
745,31213,PADERNE-CANTOÑA,42.2551770,-7.7539820,,,PADERNE DE ALLARIZ,OURENSE,ESPAÑA
746,31214,TABOADELA,42.2653960,-7.8317870,,,TABOADELA,OURENSE,ESPAÑA
747,31215,OURENSE-SAN FRANCISCO,42.3326700,-7.8608840,"Rua Pena Trevinca, 39",32005,OURENSE,OURENSE,ESPAÑA
748,31303,A FRIELA-MASIDE,42.4114010,-8.0289670,"Ctra. Ou - 0303 - Rúa San Amaro, S/N",32570,MASIDE,OURENSE,ESPAÑA
749,31304,O CARBALLIÑO,42.4313400,-8.0688740,"Avda. O Vintecinco de Xullo, S/N",32500,CARBALLIÑO (O),OURENSE,ESPAÑA
750,31306,O IRIXO,42.5197190,-8.1051740,"Ctra. Ou-223 - Aldea A Lama, 46",32530,IRIXO (O),OURENSE,ESPAÑA
751,31308,LALÍN,42.6325300,-8.1427150,"Ctra. Po -534 --- C/ Botos, S/N --- Estación Ferrocarril, S/N",36519,LALÍN,PONTEVEDRA,ESPAÑA
752,31309,PONTE TABOADA,42.6842450,-8.2068310,,,SILLEDA,PONTEVEDRA,ESPAÑA
753,31311,A BANDEIRA,42.7460980,-8.3043890,,,SILLEDA,PONTEVEDRA,ESPAÑA
754,31312,VEDRA-RIBADULLA,42.7767120,-8.4281610,,,VEDRA,"CORUÑA, A",ESPAÑA
755,31400,SANTIAGO DE COMPOSTELA-DANIEL CASTELAO,42.8708420,-8.5446970,"C/ Horreo, 75 A",15702,SANTIAGO DE COMPOSTELA,"CORUÑA, A",ESPAÑA
756,31411,UXES,43.2973740,-8.4444040,"Ctra. Dp-0510 - Travesia Estación, S/N",15690,ARTEIXO,"CORUÑA, A",ESPAÑA
757,31412,A CORUÑA,43.3496932,-8.4155629,"Avda. del Ferrocarril, 22 Bis",15008,CORUÑA (A),"CORUÑA, A",ESPAÑA
758,31415,ORDES,43.0375440,-8.4484470,"C/ Fosado, 28",15689,ORDES,"CORUÑA, A",ESPAÑA
759,31416,CERCEDA-MEIRAMA,43.2078791,-8.4467723,"Ctra. C - 2104 - A --- Estación Ferrocarril, S/N",15188,CERCEDA,"CORUÑA, A",ESPAÑA
760,32001,CAMPILLO,41.2595090,-5.0177910,"Camino Cementerio, S/N",47460,CAMPILLO (EL),VALLADOLID,ESPAÑA
761,32002,EL CARPIO,41.2154640,-5.1144660,"Paseo Isidora Carbonera, S/N --- C/ Huerta, 11",47470,CARPIO,VALLADOLID,ESPAÑA
762,32003,FRESNO EL VIEJO,41.1913510,-5.1380610,"C/ Candido Sanchez, 26",47480,FRESNO EL VIEJO,VALLADOLID,ESPAÑA
763,32004,CANTALAPIEDRA,41.1335850,-5.1829610,"Paseo Estación Ferrocarril --- C/ Cardillares, S/N",37400,CANTALAPIEDRA,SALAMANCA,ESPAÑA
764,32006,EL PEDROSO DE LA ARMUÑA,41.0799010,-5.4060190,"Paseo de la Estación, 53",37410,PEDROSO DE LA ARMUÑA (EL),SALAMANCA,ESPAÑA
765,32007,PITIEGUA,41.0637410,-5.4741740,"C/ Villaverde, S/N",37490,PITIEGUA,SALAMANCA,ESPAÑA
766,32008,GOMECELLO,41.0418590,-5.5415510,"Ctra. Pedrosillo, 6",37420,GOMECELLO,SALAMANCA,ESPAÑA
767,32009,MORISCOS,41.0116330,-5.5847130,"Ctra. Dsa-610 - Estación Ferrocarril, S/N",37430,MORISCOS,SALAMANCA,ESPAÑA
768,33008,FUENTE DE SAN ESTEBAN-BOADILLA,40.7932100,-6.2483450,,,FUENTE DE SAN ESTEBAN (LA),SALAMANCA,ESPAÑA
769,33013,CIUDAD RODRIGO,40.6087320,-6.5303100,"Paseo Estacion Ferrocarril, 25",37500,HERGUIJUELA DE CIUDAD RODRIGO,SALAMANCA,ESPAÑA
770,33016,FUENTES DE OÑORO,40.5984620,-6.8244540,"Calle Gabriel y Galan, 4",37481,FUENTES DE OÑORO,SALAMANCA,ESPAÑA
771,34002,CARDEÑOSA DE ÁVILA,40.7391200,-4.7507500,"Ctra. Estación Ferrocarril, S/N",5320,CARDEÑOSA,ÁVILA,ESPAÑA
772,34005,SAN PEDRO DEL ARROYO,40.8038410,-4.8714070,"C/ Estación Ferrocarril, S/N",5350,SAN PEDRO DEL ARROYO,ÁVILA,ESPAÑA
773,34007,CRESPOS,40.8701100,-4.9680300,"Ctra. Avp - 115 --- Estación Ferrocarril, S/N",5300,CRESPOS,ÁVILA,ESPAÑA
774,34008,NARROS DEL CASTILLO,40.8666410,-5.0528690,"Ctra. Avp-627 - Estación Ferrocarril, S/N",5369,NARROS DEL CASTILLO,ÁVILA,ESPAÑA
775,34010,PEÑARANDA DE BRACAMONTE,40.8981380,-5.2063610,"Ronda Estación Ferrocarril, 15",37300,PEÑARANDA DE BRACAMONTE,SALAMANCA,ESPAÑA
776,34011,VILLAR DE GALLIMAZO,40.9519810,-5.2961830,"Paseo Estación Ferrocarril, S/N",37320,VILLAR DE GALLIMAZO,SALAMANCA,ESPAÑA
777,34012,BABILAFUENTE,40.9724260,-5.4305930,"Ctra. Dsa - 650 --- Estación Ferrocarril, S/N",37330,BABILAFUENTE,SALAMANCA,ESPAÑA
778,34013,SAN MORALES,40.9842430,-5.4929550,"Ctra. Dsa-650 - Estación Ferrocarril, S/N",37340,SAN MORALES,SALAMANCA,ESPAÑA
779,34014,ALDEALENGUA,40.9798900,-5.5529510,"Ctra. Sa - 804 - Estación Ferrocarril, S/N",37350,ALDEALENGUA,SALAMANCA,ESPAÑA
783,35005,ILLESCAS,40.1208800,-3.8422620,"Paseo Estación Ferrocarril, S/N",45200,ILLESCAS,TOLEDO,ESPAÑA
785,35105,TORRIJOS,39.9790030,-4.2830370,"Avda. Estación Ferrocarril, S/N",45500,TORRIJOS,TOLEDO,ESPAÑA
786,35107,ERUSTES,39.9495400,-4.4875070,"Avda. Estación Ferrocarril, S/N",45540,ERUSTES,TOLEDO,ESPAÑA
787,35109,MONTEARAGÓN,39.9609960,-4.6470930,"Pza. Estación Ferrocarril, S/N",45685,MONTEARAGÓN,TOLEDO,ESPAÑA
788,35200,TALAVERA DE LA REINA,39.9706740,-4.8265120,"Paseo Estación Ferrocarril, S/N",45600,TALAVERA DE LA REINA,TOLEDO,ESPAÑA
789,35203,OROPESA DE TOLEDO,39.9217460,-5.1861370,"Avda. Estación Ferrocarril, S/N",45560,OROPESA,TOLEDO,ESPAÑA
790,35206,NAVALMORAL DE LA MATA,39.8949130,-5.5456070,"Pza. Estación Ferrocarril, 1",10300,NAVALMORAL DE LA MATA,CÁCERES,ESPAÑA
791,35207,CASATEJADA,39.8919090,-5.6777320,"Paseo José Antonio Pavon, 29",10520,CASATEJADA,CÁCERES,ESPAÑA
792,35301,MIRABEL,39.8662290,-6.2289690,"C/ Adolfo de Miguel, 13",10540,MIRABEL,CÁCERES,ESPAÑA
793,35302,CASAS DE MILLÁN,39.8118660,-6.3260450,"C/ Estación Ferrocarril, S/N",10592,CASAS DE MILLÁN,CÁCERES,ESPAÑA
794,35303,CAÑAVERAL,39.7891240,-6.3750310,"C/ Estación Ferrocarril, S/N",10820,CAÑAVERAL,CÁCERES,ESPAÑA
795,35400,CÁCERES,39.4611310,-6.3856790,"Avda. Juan Pablo Ii, 6",10005,CÁCERES,CÁCERES,ESPAÑA
796,35402,ARROYO DE MALPARTIDA,39.4680780,-6.5336340,"Avda. de la Estación, 79",10910,CÁCERES,CÁCERES,ESPAÑA
797,35405,SAN VICENTE DE ALCÁNTARA,39.3815610,-7.1170750,"Ctra. Cc-91 - Estación Ferrocarril, S/N",6500,SAN VICENTE DE ALCÁNTARA,BADAJOZ,ESPAÑA
798,35406,VALENCIA DE ALCÁNTARA,39.4269280,-7.2306880,"C/ Manuel Puebla Estación, S/N",10500,VALENCIA DE ALCÁNTARA,CÁCERES,ESPAÑA
799,36002,ALDEA DEL CANO,39.2927780,-6.3792340,,,ALDEA DEL CANO,CÁCERES,ESPAÑA
801,37200,CIUDAD REAL,38.9853000,-3.9136330,"Avda. de Europa, 1",13005,CIUDAD REAL,CIUDAD REAL,ESPAÑA
802,37300,PUERTOLLANO,38.6912800,-4.1116550,"C/ Muelle, S/N",13500,PUERTOLLANO,CIUDAD REAL,ESPAÑA
803,37302,BRAZATORTAS-VEREDAS,38.6687580,-4.3164680,"C/ Jose Poveda, S/N",13450,BRAZATORTAS,CIUDAD REAL,ESPAÑA
804,37305,ALMADENEJOS-ALMADÉN,38.7405780,-4.7303870,"Ctra. C- 424 - Estación Ferrocarril, S/N",13480,ALMADENEJOS,CIUDAD REAL,ESPAÑA
805,37308,GUADALMEZ-LOS PEDROCHES,38.6992100,-4.9297710,"Ctra. los Pedroches, Km 4",13490,GUADALMEZ,CIUDAD REAL,ESPAÑA
806,37311,CABEZA DEL BUEY,38.7238900,-5.2270670,"Barriada Estación, S/N",6600,CABEZA DEL BUEY,BADAJOZ,ESPAÑA
807,37400,ALMORCHÓN,38.6966310,-5.2904960,"Ctra. Ex-104 - Estación Ferrocarril, S/N",6614,CABEZA DEL BUEY,BADAJOZ,ESPAÑA
808,37402,CASTUERA,38.7350210,-5.5416370,"C/ Alemania, 10",6420,CASTUERA,BADAJOZ,ESPAÑA
809,37404,CAMPANARIO,38.8533950,-5.6414150,"Ctra. Ex - 115 --- Estación Ferrocarril, S/N",6460,CAMPANARIO,BADAJOZ,ESPAÑA
810,37406,VILLANUEVA DE LA SERENA,38.9688600,-5.7965000,"C/ Jose Gallardo, 10",6700,VILLANUEVA DE LA SERENA,BADAJOZ,ESPAÑA
811,37407,DON BENITO,38.9669500,-5.8629230,"Avda. de la Constitucion, 29",6400,DON BENITO,BADAJOZ,ESPAÑA
812,37409,VALDETORRES,38.9133010,-6.0694070,"C/ Luis Chamizo, 6",6474,VALDETORRES,BADAJOZ,ESPAÑA
1085,66012,CARACENILLA,40.1534330,-2.5684190,,,HUETE,CUENCA,ESPAÑA
813,37410,GUAREÑA,38.8967490,-6.1288420,"Ctra. Ba - 043 --- Estación de Ferrocarril, S/N",6470,GUAREÑA,BADAJOZ,ESPAÑA
814,37500,MÉRIDA,38.9215030,-6.3437940,"C/ Cardero, S/N",6800,MÉRIDA,BADAJOZ,ESPAÑA
815,37600,ALJUCÉN,38.9364140,-6.4079290,"C/ Estación Ferrocarril, S/N",6800,MÉRIDA,BADAJOZ,ESPAÑA
816,37601,LA GARROVILLA,38.9157630,-6.4740800,,,GARROVILLA (LA),BADAJOZ,ESPAÑA
817,37603,MONTIJO,38.9135390,-6.5985770,"Avda. Estación Ferrocarril, S/N",6480,MONTIJO,BADAJOZ,ESPAÑA
818,37604,GUADIANA,38.9220990,-6.6899980,"Ctra. Ba - 034 --- Estación de Ferrocarril, S/N",6186,GUADIANA DEL CAUDILLO,BADAJOZ,ESPAÑA
819,37606,BADAJOZ,38.8906960,-6.9817530,"Calle Carmelo Vera Domenech S/N, Badajoz",6006,BADAJOZ,BADAJOZ,ESPAÑA
820,37608,MONTIJO-EL MOLINO,38.9139730,-6.6182810,"C/ Estación Ferrocarril, S/N",6480,MONTIJO,BADAJOZ,ESPAÑA
821,37611,GARROVILLA-LAS VEGAS,38.9157630,-6.4740800,"Barriada Estación, 2",6870,GARROVILLA (LA),BADAJOZ,ESPAÑA
822,37704,VILLANUEVA DE CÓRDOBA,38.2554049,-4.5709520,"Ctra. Co-5100 - Villanueva Adamuz Km 9,8 - Estación Ferrocarril, S/N",14440,VILLANUEVA DE CÓRDOBA,CÓRDOBA,ESPAÑA
823,40002,CALAMONTE,38.8869310,-6.3829650,"Avda. de Espronceda, S/N",6810,CALAMONTE,BADAJOZ,ESPAÑA
824,40004,ALMENDRALEJO,38.6846620,-6.3998150,"C/ Lago de Alange, 1a",6200,ALMENDRALEJO,BADAJOZ,ESPAÑA
825,40005,VILLAFRANCA DE LOS BARROS,38.5644020,-6.3520480,"Avda. Estación Ferrocarril, S/N",6220,VILLAFRANCA DE LOS BARROS,BADAJOZ,ESPAÑA
826,40006,LOS SANTOS DE MAIMONA,38.4497240,-6.3617490,"C/ Diseminado la Carrasca, 5",6230,SANTOS DE MAIMONA (LOS),BADAJOZ,ESPAÑA
827,40008,ZAFRA FERIA,38.4244030,-6.4100840,"Barriada Antono Zodo, S/N",6300,ZAFRA,BADAJOZ,ESPAÑA
828,40100,ZAFRA,38.4136350,-6.4050830,"Avda. Estación Ferrocarril, S/N",6300,ZAFRA,BADAJOZ,ESPAÑA
829,40105,LLERENA,38.2370000,-6.0090170,"Avda. Estación Ferrocarril, 6",6900,LLERENA,BADAJOZ,ESPAÑA
830,40107,FUENTE DEL ARCO,38.1635300,-5.9004840,"Ctra. Bav - 1618 --- Estación Ferrocarril, S/N",6980,FUENTE DEL ARCO,BADAJOZ,ESPAÑA
831,40108,GUADALCANAL,38.0901970,-5.8033880,"Ctra. Se - 165 --- Estación Ferrocarril, S/N",41390,GUADALCANAL,SEVILLA,ESPAÑA
837,42002,MEDINA DE LAS TORRES,38.3428170,-6.4091280,,,MEDINA DE LAS TORRES,BADAJOZ,ESPAÑA
838,42003,VALENCIA DEL VENTOSO,38.2578120,-6.4562060,,,VALENCIA DEL VENTOSO,BADAJOZ,ESPAÑA
839,42005,FREGENAL DE LA SIERRA,38.1676130,-6.6379090,"Ctra. Ex - 201 --- Estación Ferrocarril, S/N",6340,FREGENAL DE LA SIERRA,BADAJOZ,ESPAÑA
840,42006,CUMBRES MAYORES,38.0531260,-6.6315530,"Ctra. A - 5300 --- Estación Ferrocarril, S/N",21380,CUMBRES MAYORES,HUELVA,ESPAÑA
841,42008,JABUGO-GALAROZA,37.9282430,-6.7739080,"C/ Roman Talero, 34",21360,JABUGO,HUELVA,ESPAÑA
842,42009,ALMONASTER-CORTEGANA,37.9011740,-6.7973720,"C/ Aldea Estación Almter, S/N",21342,ALMONASTER LA REAL,HUELVA,ESPAÑA
843,42010,GIL MÁRQUEZ,37.8574010,-6.8508390,,,ALMONASTER LA REAL,HUELVA,ESPAÑA
844,42012,VALDELAMUSA,37.7871110,-6.8737290,"Ctra. Hu-6102 - Estación Ferrocarril, S/N",21330,CORTEGANA,HUELVA,ESPAÑA
845,42013,EL TAMUJOSO,37.7203390,-6.9005540,"Ctra. Hu - 5101 --- Estación Ferrocarril, S/N",21320,CERRO DE ANDÉVALO (EL),HUELVA,ESPAÑA
846,42015,CALAÑAS,37.6520070,-6.8758410,"Paseo Ramon Regajo, S/N",21300,CALAÑAS,HUELVA,ESPAÑA
847,42016,LOS MILANOS,37.5862190,-6.9199380,"Ctra. H - 9020 --- Estación Ferrocarril, S/N",21300,CALAÑAS,HUELVA,ESPAÑA
848,42018,EL COBUJÓN,37.5165090,-6.9534280,"Ctra. Hv - 1427 --- Estación Ferrocarril, S/N",21300,CALAÑAS,HUELVA,ESPAÑA
849,42019,BELMONTE,37.4618640,-6.9475330,"Ctra. N - 431 --- Estación Ferrocarril, S/N",21500,GIBRALEÓN,HUELVA,ESPAÑA
850,42020,GIBRALEÓN,37.3685200,-6.9620700,"C/ Guadiana, 6",21500,GIBRALEÓN,HUELVA,ESPAÑA
852,43008,CARRIÓN DE LOS CÉSPEDES,37.3689550,-6.3350880,Ctra. Se - 637 - Estación de Ferrocarril S/N,41820,CARRIÓN DE LOS CÉSPEDES,SEVILLA,ESPAÑA
853,43009,ESCACENA,37.3978120,-6.3919800,"Ctra. Hu - 6111 --- Camino del Pozo, S/N",21870,ESCACENA DEL CAMPO,HUELVA,ESPAÑA
854,43011,LA PALMA DEL CONDADO,37.3906650,-6.5544440,"Avda. de la Constitucion, 9",21700,PALMA DEL CONDADO (LA),HUELVA,ESPAÑA
855,43012,VILLARRASA,37.3869990,-6.5988190,"Ctra. A-472 - Estación Ferrocarril, S/N",21850,VILLARRASA,HUELVA,ESPAÑA
856,43015,NIEBLA-PUERTA DEL BUEY,37.3587619,-6.6812578,"Avda. Puerta del Buey, S/N",21840,NIEBLA,HUELVA,ESPAÑA
857,43019,HUELVA,37.2525922,-6.9448154,"Avda. de Cádiz, S/N",21003,HUELVA,HUELVA,ESPAÑA
858,43021,SAN JUAN DEL PUERTO,37.3118980,-6.8410760,"C/ Rios Esquina Pza. de la Marina, S/N",21610,SAN JUAN DEL PUERTO,HUELVA,ESPAÑA
860,50002,CINCO CASAS,39.1692820,-3.2326630,"Pla. Estación Ferrocarril, S/N",13720,ALCÁZAR DE SAN JUAN,CIUDAD REAL,ESPAÑA
861,50100,MANZANARES,39.0058370,-3.3705070,"Paseo Estación Ferrocarril, S/N",13200,MANZANARES,CIUDAD REAL,ESPAÑA
862,50102,VALDEPEÑAS,38.7628680,-3.3957200,"Paseo Estación Ferrocarril, S/N",13300,VALDEPEÑAS,CIUDAD REAL,ESPAÑA
863,50200,SANTA CRUZ DE MUDELA,38.6444280,-3.4514930,"Paseo Castelar, 161",13730,SANTA CRUZ DE MUDELA,CIUDAD REAL,ESPAÑA
864,50202,ALMURADIEL-VISO DEL MARQUÉS,38.5142670,-3.5019350,"C/ San Antonio, S/N",13760,ALMURADIEL,CIUDAD REAL,ESPAÑA
865,50207,VILCHES,38.2157420,-3.5175760,"C/ Estación Ferrocarril, S/N",23220,VILCHES,JAÉN,ESPAÑA
866,50300,LINARES-BAEZA,38.0688640,-3.5893960,"Pla. de las Palmeras, S/N",23490,LINARES,JAÉN,ESPAÑA
867,50400,ESPELÚY,38.0102470,-3.8327260,"Pla. Estación Ferrocarril, 3",23628,ESPELÚY,JAÉN,ESPAÑA
868,50403,ANDÚJAR,38.0282250,-4.0660360,"Ctra. Estación Ferrocarril, S/N",23740,ANDÚJAR,JAÉN,ESPAÑA
869,50407,VILLA DEL RÍO,37.9813310,-4.2837880,"C/ Prolongacion Estación Ferrocarril, S/N",14640,VILLA DEL RÍO,CÓRDOBA,ESPAÑA
870,50413,ALCOLEA DE CÓRDOBA,37.9223260,-4.6947510,"Ctra. N - Iv - Madrid - Cádiz - Estación Ferrocarril, S/N",14610,CÓRDOBA,CÓRDOBA,ESPAÑA
871,50417,CAMPUS UNIVERSITARIO DE RABANALES,37.9125600,-4.7208600,"C/ Estación Ferrocarril, S/N",14014,CÓRDOBA,CÓRDOBA,ESPAÑA
872,50500,CÓRDOBA-JULIO ANGUITA,37.8882910,-4.7894530,"Glorieta de las Tres Culturas, S/N",14011,CÓRDOBA,CÓRDOBA,ESPAÑA
873,50501,EL HIGUERÓN,37.8702710,-4.8389420,"C/ Cantero Juan de Ochoa, 4",14193,CÓRDOBA,CÓRDOBA,ESPAÑA
874,50502,VILLARRUBIA DE CÓRDOBA,37.8475740,-4.9153390,"Pza. Azucarera San Rafael, S/N",14710,CÓRDOBA,CÓRDOBA,ESPAÑA
875,50504,POSADAS,37.8039860,-5.1063250,"Pza. Estación Ferrocarril, S/N",14730,POSADAS,CÓRDOBA,ESPAÑA
876,50506,PALMA DEL RÍO,37.7180810,-5.2927600,"C/ Estación Ferrocarril, S/N",14700,PALMA DEL RÍO,CÓRDOBA,ESPAÑA
877,50507,PEÑAFLOR,37.7075020,-5.3416090,"C/ Estación de Ferrocarril, S/N",41470,PEÑAFLOR,SEVILLA,ESPAÑA
921,54105,MONTILLA,37.5788510,-4.6341120,,,MONTILLA,CÓRDOBA,ESPAÑA
922,54106,AGUILAR DE LA FRONTERA,37.5245580,-4.6607240,,,AGUILAR DE LA FRONTERA,CÓRDOBA,ESPAÑA
923,54201,PUENTE GENIL,37.3959710,-4.7529820,,,PUENTE GENIL,CÓRDOBA,ESPAÑA
924,54202,CASARICHE,37.2945590,-4.7643860,,,CASARICHE,SEVILLA,ESPAÑA
925,54300,LA RODA DE ANDALUCÍA,37.2092940,-4.7749760,,,RODA DE ANDALUCÍA (LA),SEVILLA,ESPAÑA
926,54301,FUENTE DE PIEDRA,37.1353070,-4.7379670,,,FUENTE DE PIEDRA,MÁLAGA,ESPAÑA
927,54400,BOBADILLA,37.0370730,-4.7279420,"Pla. de la Estación, S/N",29540,ANTEQUERA,MÁLAGA,ESPAÑA
928,54403,EL CHORRO-CAMINITO DEL REY,36.9073350,-4.7592580,"Ctra. Ma - 5403 --- Estación de Ferrocarril, S/N",29552,ÁLORA,MÁLAGA,ESPAÑA
929,54404,LAS MELLIZAS,36.8733060,-4.7194330,"Barriada Estación de las Mellizas, S/N",29593,ÁLORA,MÁLAGA,ESPAÑA
944,55001,CAMPILLOS,37.0322310,-4.8634990,"Ctra. Estación Ferrocarril, S/N",29320,CAMPILLOS,MÁLAGA,ESPAÑA
945,55002,TEBA,36.9945970,-4.9239240,,,TEBA,MÁLAGA,ESPAÑA
946,55003,ALMARGEN-CAÑETE LA REAL,37.0009850,-5.0201110,"C/ Cortina Estación, 1b",29330,ALMARGEN,MÁLAGA,ESPAÑA
947,55005,SETENIL,36.8634230,-5.1213750,"Ctra. Ca-414 - Estación de Ferrocarril, S/N",11692,SETENIL DE LAS BODEGAS,CÁDIZ,ESPAÑA
948,55007,RONDA,36.7484010,-5.1619700,"Avda. de Andalucia, 31",29400,RONDA,MÁLAGA,ESPAÑA
949,55008,ARRIATE,36.7905949,-5.1407570,"Ctra. Ma -7400 - Estación Ferrocarril, S/N",29350,ARRIATE,MÁLAGA,ESPAÑA
950,55010,BENAOJÁN-MONTEJAQUE,36.7137530,-5.2463660,"Ctra. Estación Benaojan, S/N",29370,BENAOJÁN,MÁLAGA,ESPAÑA
951,55011,JIMERA DE LÍBAR,36.6606780,-5.2814730,"Avda. la Barca --- C/ Fuente Grande, S/N",29392,JIMERA DE LÍBAR,MÁLAGA,ESPAÑA
952,55012,CORTES DE LA FRONTERA,36.5973640,-5.3327840,"Avda. Llano de la Estación, S/N",29391,CORTES DE LA FRONTERA,MÁLAGA,ESPAÑA
953,55013,GAUCÍN,36.5403720,-5.3868250,"Ctra. Ma - 512 --- Estación Ferrocarril, S/N",29490,CORTES DE LA FRONTERA,MÁLAGA,ESPAÑA
954,55014,SAN PABLO,36.4679520,-5.4189210,"Ctra. A-405 - Estación Ferracarril, S/N",11320,JIMENA DE LA FRONTERA,CÁDIZ,ESPAÑA
955,55015,JIMENA DE LA FRONTERA,36.4242000,-5.4341130,"C/ Juan de Dios, 15",11339,JIMENA DE LA FRONTERA,CÁDIZ,ESPAÑA
956,55017,ALMORAIMA,36.2775100,-5.4305290,"Ctra. A- 405 - Estación Ferrocarril, S/N",11350,CASTELLAR DE LA FRONTERA,CÁDIZ,ESPAÑA
957,55018,SAN ROQUE-LA LÍNEA,36.2144820,-5.4323990,"Avda. Guadarranque, 34",11368,SAN ROQUE,CÁDIZ,ESPAÑA
958,55019,LOS BARRIOS,36.1739980,-5.4608010,"Ctra. Jerez - Algeciras - Estación Ferrocarril, 1",11370,BARRIOS (LOS),CÁDIZ,ESPAÑA
959,55020,ALGECIRAS,36.1268310,-5.4511080,"Avda. Gesto Por la Paz, S/N",11207,ALGECIRAS,CÁDIZ,ESPAÑA
960,56004,JÓDAR-ÚBEDA,37.9133430,-3.3489200,"Ctra. A - 401 --- Estación de Ferrocarril, S/N",23400,JÓDAR,JAÉN,ESPAÑA
961,56005,LOS PROPIOS-CAZORLA,37.8920430,-3.2824510,,,ÚBEDA,JAÉN,ESPAÑA
962,56007,LARVA,37.7771470,-3.2317190,,,CABRA DEL SANTO CRISTO,JAÉN,ESPAÑA
963,56008,HUESA,37.7171480,-3.1871030,,,CABRA DEL SANTO CRISTO,JAÉN,ESPAÑA
964,56009,CABRA DEL SANTO CRISTO Y ALICÚN,37.6567129,-3.2626230,"Ctra. Jv - 3212 --- Estación Ferrocarril, S/N",23590,CABRA DEL SANTO CRISTO,JAÉN,ESPAÑA
965,56011,ALAMEDILLA-GUADAHORTUNA,37.5802420,-3.3029470,,,ALAMEDILLA,GRANADA,ESPAÑA
966,56100,MOREDA,37.4312160,-3.3105160,"Ctra. Gr-4101 - Estación de Ferrocarril, 26",18540,MORELÁBOR,GRANADA,ESPAÑA
967,56103,BENALÚA DE GUADIX,37.3452770,-3.1631770,"Avda. Llano de la Estación, S/N",18510,BENALÚA,GRANADA,ESPAÑA
968,56200,GUADIX,37.3168730,-3.1272090,"Avda. Estación Ferrocarril, S/N",18500,GUADIX,GRANADA,ESPAÑA
969,56301,FIÑANA,37.1846470,-2.8397570,"Ctra. Al - 6401 --- Diseminado Cortijo Faz,s/n",4500,FIÑANA,ALMERÍA,ESPAÑA
970,56305,GÉRGAL,37.1088470,-2.5915560,"Ctra. Al - 3410 --- Estación Ferrocarril, S/N",4458,GÉRGAL,ALMERÍA,ESPAÑA
971,56308,GÁDOR,36.9516240,-2.4876580,"Ctra. Al - 3411 --- C/ Retiro, S/N",4560,GÁDOR,ALMERÍA,ESPAÑA
972,56310,HUERCAL-VIATOR,36.8851550,-2.4367180,Estación Ffcc - C/ Real S/N - 04230 Huercal de Almeríao (Almería),4230,HUÉRCAL DE ALMERÍA,ALMERÍA,ESPAÑA
973,56312,ALMERÍA,36.8349510,-2.4555190,"Pla. Estación Ferrocarril, S/N",4006,ALMERÍA,ALMERÍA,ESPAÑA
974,57003,IZNALLOZ,37.3958520,-3.5279470,"C/ Explanada Estación Ferrocarril, S/N",18550,IZNALLOZ,GRANADA,ESPAÑA
980,60202,CASTILLEJO-AÑOVER,39.9496340,-3.7387740,"Ctra. M - 416 --- Añover-Yepes --- Estación Ferrocarril, S/N",28300,ARANJUEZ,MADRID,ESPAÑA
981,60203,VILLASEQUILLA,39.8795350,-3.7284530,"Paseo Estación Ferrocarril, S/N",45740,VILLASEQUILLA,TOLEDO,ESPAÑA
982,60206,TEMBLEQUE,39.7229580,-3.4973540,"C/ Camino de la Celadilla, S/N",45770,TEMBLEQUE,TOLEDO,ESPAÑA
983,60207,EL ROMERAL,39.6945160,-3.4305020,"Pla. Esquina del Cristino, S/N",45770,ROMERAL (EL),TOLEDO,ESPAÑA
984,60300,VILLACAÑAS,39.6226980,-3.3305100,"Paseo Estación Ferrocarril, S/N",45860,VILLACAÑAS,TOLEDO,ESPAÑA
985,60301,QUERO,39.5041730,-3.2660720,"Ctra. Estación Ferrocarril, S/N",45790,QUERO,TOLEDO,ESPAÑA
986,60400,ALCÁZAR DE SAN JUAN,39.3956280,-3.2057440,"C/ Alvarez Guerra, S/N",13600,ALCÁZAR DE SAN JUAN,CIUDAD REAL,ESPAÑA
987,60402,CAMPO DE CRIPTANA,39.3943430,-3.1177460,"Avda. Agustin de la Fuente, 49",13610,CAMPO DE CRIPTANA,CIUDAD REAL,ESPAÑA
988,60406,SOCUÉLLAMOS,39.2787760,-2.7755710,"C/ Estación Ferrocarril, S/N",13630,SOCUÉLLAMOS,CIUDAD REAL,ESPAÑA
989,60500,VILLARROBLEDO,39.2608680,-2.5986210,"C/ Juan Ferreira, S/N",2600,VILLARROBLEDO,ALBACETE,ESPAÑA
990,60503,MINAYA,39.2407380,-2.3484030,"C/ Estación Ferrocarril, S/N",2620,MINAYA,ALBACETE,ESPAÑA
991,60505,LA RODA DE ALBACETE,39.1995940,-2.1625470,"Pla. Estación Ferracarril, S/N",2630,RODA (LA),ALBACETE,ESPAÑA
992,60507,LA GINETA,39.1116650,-2.0001550,"C/ Santa Ana, S/N",2110,GINETA (LA),ALBACETE,ESPAÑA
993,60600,ALBACETE-LOS LLANOS,38.9993840,-1.8484500,"C/ Federico García Lorca, 1",2001,ALBACETE,ALBACETE,ESPAÑA
994,60800,ALMANSA,38.8678220,-1.1054460,"Pla. Primero de Mayo, 1",2640,ALMANSA,ALBACETE,ESPAÑA
995,60900,LA ENCINA,38.7653440,-0.9542440,"Avda. Constitucion, 1",3408,VILLENA,ALICANTE/ALACANT,ESPAÑA
996,60901,CAUDETE,38.7161630,-0.9597270,"Ctra. Cv - 656 --- Estación Ferrocarril, S/N",2660,CAUDETE,ALBACETE,ESPAÑA
997,60902,VILLENA,38.6317380,-0.8676890,"Ronda de la Estación, S/N",3400,VILLENA,ALICANTE/ALACANT,ESPAÑA
998,60904,SAX,38.5442510,-0.8137290,"Luis Barcelo Santoja, 25",3630,SAX,ALICANTE/ALACANT,ESPAÑA
999,60905,ELDA-PETRER,38.4848790,-0.8010900,"C/ Galicia, S/N",3600,ELDA,ALICANTE/ALACANT,ESPAÑA
1000,60907,NOVELDA-ASPE,38.4070860,-0.7777440,"C/ Rafael Altamira, S/N",3660,NOVELDA,ALICANTE/ALACANT,ESPAÑA
1004,61005,HELLÍN,38.5087760,-1.6884370,"Paseo Yutera del Carmen, S/N",2400,HELLÍN,ALBACETE,ESPAÑA
1005,61009,CALASPARRA,38.2692600,-1.6801090,"Calle Estacion Ferrocarril, 8",30420,CALASPARRA,MURCIA,ESPAÑA
1006,61012,CIEZA,38.2466090,-1.4217020,"C/ Estación Ferrocarril, 34",30530,CIEZA,MURCIA,ESPAÑA
1007,61015,ARCHENA-FORTUNA,38.1313200,-1.2360370,"C/ Estación Ferrocarril, S/N",30627,MOLINA DE SEGURA,MURCIA,ESPAÑA
1012,61307,CARTAGENA,37.6049670,-0.9751220,"Pla. de Mejico, 2",30203,CARTAGENA,MURCIA,ESPAÑA
1055,65301,LES PALMES,40.0213050,-0.0009230,,,CASTELLÓN DE LA PLANA/CASTELLÓ DE LA PLANA,CASTELLÓN/CASTELLÓ,ESPAÑA
1069,65408,MONT-ROIG DEL CAMP,41.0449630,0.99072200,"Carretera N-340 - Partida Poblas, S/N",43892,MONT-ROIG DEL CAMP,TARRAGONA,ESPAÑA
1075,66001,ONTÍGOLA,40.0008270,-3.5728960,"Calle Camino Estacion Ferrocarril, S/N",45340,ONTÍGOLA,TOLEDO,ESPAÑA
1076,66002,OCAÑA,39.9646630,-3.4859600,"Calle Estacion Ferrocarril, S/N",45300,OCAÑA,TOLEDO,ESPAÑA
1077,66003,NOBLEJAS,39.9725080,-3.4425830,"Paseo Estacion Ferrocarril, S/N",45350,NOBLEJAS,TOLEDO,ESPAÑA
1078,66004,VILLARRUBIA DE SANTIAGO,39.9664310,-3.3678460,"Calle Estacion Ferrocarril, S/N",45360,VILLARRUBIA DE SANTIAGO,TOLEDO,ESPAÑA
1079,66005,SANTA CRUZ DE LA ZARZA,39.9731900,-3.1804240,"Avenida Castilla la Mancha, S/N",45370,SANTA CRUZ DE LA ZARZA,TOLEDO,ESPAÑA
1080,66006,TARANCÓN,40.0065020,-3.0096910,"Glorieta Estacion Ferrocarril, S/N",16400,TARANCÓN,CUENCA,ESPAÑA
1081,66008,HUELVES,40.0435340,-2.8856920,,,HUELVES,CUENCA,ESPAÑA
1082,66009,PAREDES DE MELO,40.1123290,-2.7965780,,,PAREDES,CUENCA,ESPAÑA
1083,66010,VELLISCA,40.1123040,-2.7963100,,,VELLISCA,CUENCA,ESPAÑA
1084,66011,HUETE,40.1471100,-2.6815970,"Paseo Estacion Ferrocarril, S/N",16500,HUETE,CUENCA,ESPAÑA
1086,66013,CASTILLEJO DEL ROMERAL,40.1371940,-2.5069210,"Calle Estacion Ferrocarril, S/N",16541,HUETE,CUENCA,ESPAÑA
1087,66014,CUEVAS DE VELASCO,40.1554910,-2.4085160,"Calle Estacion Ferrocarril, S/N",16542,VILLAR Y VELASCO,CUENCA,ESPAÑA
1088,66015,VILLAR DEL SAZ DE NAVALÓN,40.1692570,-2.3570930,,,FUENTENAVA DE JÁBAGA,CUENCA,ESPAÑA
1089,66016,CHILLARÓN,40.1029000,-2.2209660,"Calle Estacion Ferrocarril, S/N",16190,CHILLARÓN DE CUENCA,CUENCA,ESPAÑA
1090,66100,CUENCA,40.0673400,-2.1364710,"Calle Mariano Catalina, 10",16004,FUENTE OBEJUNA,CUENCA,ESPAÑA
1091,66103,CAÑADA DEL HOYO,39.9538410,-1.8895520,"Calle Estacion Ferrocarril, S/N",16340,CAÑADA DEL HOYO,CUENCA,ESPAÑA
1092,66104,CARBONERAS DE GUADAZAÓN,39.9000580,-1.8068330,"Carretera Camporrobles, S/N",16350,CARBONERAS DE GUADAZAÓN,CUENCA,ESPAÑA
1093,66105,ARGUISUELAS,39.8385300,-1.8123040,"Calle Estacion Ferrocarril, S/N",16360,ARGUISUELAS,CUENCA,ESPAÑA
1094,66108,YÉMEDA-CARDENETE,39.7508980,-1.6818950,"Carretera Cuv - 5014 - Estacion Ferrocarril, S/N",16373,YÉMEDA,CUENCA,ESPAÑA
1095,66109,VÍLLORA,39.7470230,-1.6110020,"Carretera Cm-2109 - Estacion Ferrocarril, S/N",16371,VÍLLORA,CUENCA,ESPAÑA
1096,66112,CAMPORROBLES,39.6448290,-1.4027850,"Calle Estacion Ferrocarril, 1",46330,CAMPORROBLES,VALENCIA/VALÈNCIA,ESPAÑA
1097,66113,LAS CUEVAS,39.6191690,-1.2836780,"Calle Estacion Ferrocarril, S/N",46313,UTIEL,VALENCIA/VALÈNCIA,ESPAÑA
1112,67004,MARÍA DE HUERVA,41.5397590,-0.9980820,"C/ Estación Ferrocarril, S/N",50430,MARÍA DE HUERVA,ZARAGOZA,ESPAÑA
1113,67007,ARAÑALES DE MUEL,41.4689460,-1.0863940,"C/ Escalera Arañales, 8",50450,MUEL,ZARAGOZA,ESPAÑA
1114,67009,LONGARES,41.4047870,-1.1587910,"C/ Camino Estación Ferrocarril, S/N",50460,LONGARES,ZARAGOZA,ESPAÑA
1115,67010,CARIÑENA,41.3355860,-1.2284220,"Camino Estación Ferrocarril, 1",50400,CARIÑENA,ZARAGOZA,ESPAÑA
1116,67011,ENCINACORBA,41.2886500,-1.2785340,"C/ Estación Ferrocarril, 9",50470,ENCINACORBA,ZARAGOZA,ESPAÑA
1117,67013,VILLARREAL DE HUERVA,41.1964980,-1.2870960,"C/ Camino de la Estación, S/N",50490,VILLARREAL DE HUERVA,ZARAGOZA,ESPAÑA
1118,67014,VILLADOZ,41.1654820,-1.2793390,"Ctra. A-2509 - Estación Ferrocarril, S/N",50490,VILLADOZ,ZARAGOZA,ESPAÑA
1119,67015,BADULES,41.1395100,-1.2515720,"Ctra. A - 1506 --- C/ Mayor, S/N",50491,BADULES,ZARAGOZA,ESPAÑA
1120,67016,VILLAHERMOSA,41.1084920,-1.2398030,"Ctra. Te-17 - Estación Ferrocarril, S/N",44494,VILLAHERMOSA DEL CAMPO,TERUEL,ESPAÑA
1121,67017,FERRERUELA,41.0638700,-1.2393840,"Ctra. A - 2510 --- Estación de Ferrocarril, S/N",44490,FERRERUELA DE HUERVA,TERUEL,ESPAÑA
1122,67018,CUENCABUENA,41.0092930,-1.2546410,"Ctra. Te - 19 --- Estación Ferrocarril, S/N",44495,CALAMOCHA,TERUEL,ESPAÑA
1123,67019,LECHAGO,40.9576810,-1.2690870,"Autovia Mudejar A- 23 --- Estación Ferrocarril, S/N",44495,CALAMOCHA,TERUEL,ESPAÑA
1124,67020,NAVARRETE,40.9367210,-1.2617330,"Ctra. A-2512 - Estación Ferrocarril, S/N",44496,CALAMOCHA,TERUEL,ESPAÑA
1125,67021,CALAMOCHA,40.9038640,-1.2998410,"Ctra. N - 234 --- Estación Ferrocarril, S/N",44200,CALAMOCHA,TERUEL,ESPAÑA
1126,67100,CAMINREAL-FUENTES CLARAS,40.8511100,-1.3376500,"Ctra. Cv - 4301 --- Estación Ferrocarril, S/N",44350,CAMINREAL,TERUEL,ESPAÑA
1127,67101,TORRIJO DEL CAMPO,40.8260120,-1.3404980,"C/ Alemania, S/N",44393,TORRIJO DEL CAMPO,TERUEL,ESPAÑA
1128,67103,VILLAFRANCA DEL CAMPO,40.6838270,-1.3579270,"Ctra. Te-V-9024 - Estación Ferrocarril, S/N",44394,VILLAFRANCA DEL CAMPO,TERUEL,ESPAÑA
1129,67105,SANTA EULALIA DEL CAMPO,40.5729170,-1.3129950,"Barrio Estación Ferrocarril, 8",44360,SANTA EULALIA,TERUEL,ESPAÑA
1130,67107,CELLA,40.4552660,-1.2443290,"C/ Estación Ferrocarril, S/N",44370,CELLA,TERUEL,ESPAÑA
1131,67113,MONREAL DEL CAMPO,40.7823210,-1.3607920,"C/ Teruel, S/N",44300,MONREAL DEL CAMPO,TERUEL,ESPAÑA
1132,67200,TERUEL,40.3410290,-1.1102840,"C/ Camino de la Estación, S/N",44001,TERUEL,TERUEL,ESPAÑA
1133,67202,PUERTO ESCANDÓN,40.2730920,-0.9850790,"Ctra. N-234, Km. 103 - Estación Ferrocarril, S/N",44442,PUEBLA DE VALVERDE (LA),TERUEL,ESPAÑA
1134,67203,PUEBLA DE VALVERDE,40.2134240,-0.9446740,"Ctra. Te-620 - Camino Estación Ferrocarril, S/N",44450,PUEBLA DE VALVERDE (LA),TERUEL,ESPAÑA
1135,67205,SARRIÓN,40.1463390,-0.8236310,"C/ Camino de la Estación, S/N",44460,SARRIÓN,TERUEL,ESPAÑA
1136,67206,MORA DE RUBIELOS,40.1231420,-0.7861450,"C/ Estación Ferrocarril Mora, 1",44477,ALBENTOSA,TERUEL,ESPAÑA
1137,67207,RUBIELOS DE MORA,40.1180060,-0.7734630,"Ctra. Te-V-6005 - Estación Ferrocarril, S/N",44477,RUBIELOS DE MORA,TERUEL,ESPAÑA
1138,67208,BARRACAS,40.0117400,-0.6961510,"Avda. Estación Ferrocarril, 9",12420,BARRACAS,CASTELLÓN/CASTELLÓ,ESPAÑA
1139,67210,MASADAS BLANCAS (APT),39.9489370,-0.6565860,,,CAUDIEL,CASTELLÓN/CASTELLÓ,ESPAÑA
1149,69001,GENOVÉS,38.9877300,-0.4798800,"C/ Estación Ferrocarril, S/N",46894,GENOVÉS,VALENCIA/VALÈNCIA,ESPAÑA
1150,69002,BENIGÀNIM,38.9384990,-0.4534240,"Avda. Balneari de Bellus, S/N",46830,BENIGÀNIM,VALENCIA/VALÈNCIA,ESPAÑA
1151,69003,LA POBLA DEL DUC,38.9076060,-0.4533860,"C/ Estación Ferrocarril, S/N",46840,POBLA DEL DUC (LA),VALENCIA/VALÈNCIA,ESPAÑA
1152,69004,MONTABERNER,38.8841350,-0.4916190,"Avda. Estación Ferrocarril, 20",46892,MONTAVERNER,VALENCIA/VALÈNCIA,ESPAÑA
1153,69005,BUFALÍ,38.8674050,-0.5104780,"C/ Estación Ferrocarril, S/N",46891,BUFALI,VALENCIA/VALÈNCIA,ESPAÑA
1154,69006,ALBAIDA,38.8456450,-0.5181290,"Acceso A Través de la Rotonda Cv-60, Av. Fora-Fora y Av. de la Fira, S/N",46860,ALBAIDA,VALENCIA/VALÈNCIA,ESPAÑA
1155,69007,AGULLENT,38.8305690,-0.5511830,"C/ Estación Ferrocarril, S/N",46890,AGULLENT,VALENCIA/VALÈNCIA,ESPAÑA
1156,69008,ONTINYENT,38.8096920,-0.6024570,"Ctra. Cv-6620 - Poligono Urbano, 2",46870,ONTINYENT,VALENCIA/VALÈNCIA,ESPAÑA
1157,69009,AGRES,38.7968290,-0.5217440,"C/ Estación Ferrocarril, S/N",3837,AGRES,ALICANTE/ALACANT,ESPAÑA
1158,69010,COCENTAINA,38.7406180,-0.4467890,"C/ Pujada A Santa Barbara, 29",3820,COCENTAINA,ALICANTE/ALACANT,ESPAÑA
1159,69011,ALCOI,38.7093490,-0.4702470,"Avda. Tirant Lo Blanc, 8",3804,ALCOY/ALCOI,ALICANTE/ALACANT,ESPAÑA
1179,70202,YUNQUERA DE HENARES,40.7470130,-3.1632260,"Paseo Estación Ferrocarril, S/N",19210,YUNQUERA DE HENARES,GUADALAJARA,ESPAÑA
1180,70204,HUMANES DE MOHERNANDO,40.8312730,-3.1388600,"Paseo Estación Ferrocarril, S/N",19229,HUMANES,GUADALAJARA,ESPAÑA
1181,70207,ESPINOSA DE HENARES,40.9096860,-3.0731570,"Paseo Estación Ferrocarril, S/N",19292,COPERNAL,GUADALAJARA,ESPAÑA
1182,70208,CARRASCOSA DE HENARES,40.9059800,-3.0143520,"Paseo El Apeadero, S/N",19247,ESPINOSA DE HENARES,GUADALAJARA,ESPAÑA
1183,70209,JADRAQUE,40.9302290,-2.9359350,"Ctra. Estación Ferrocarril, S/N",19240,JADRAQUE,GUADALAJARA,ESPAÑA
1184,70210,MATILLAS,40.9538080,-2.8432600,"Ctra. de Cendejas, Estación del Ferrocarril, Matillas (Guadalajara)",19294,MATILLAS,GUADALAJARA,ESPAÑA
1185,70300,BAIDES,41.0048640,-2.7856350,"C/ Estación Ferrocarril, S/N",19295,BAIDES,GUADALAJARA,ESPAÑA
1186,70302,SIGÜENZA,41.0714170,-2.6464070,"C/ Alfonso Vi, S/N",19250,SIGÜENZA,GUADALAJARA,ESPAÑA
1187,70400,TORRALBA,41.1366170,-2.4929520,"Barrio Estación Ferrocarril, S/N",42230,MEDINACELI,SORIA,ESPAÑA
1188,70401,MEDINACELI,41.1652070,-2.4212410,"Pza. Estación Ferrocarril, S/N",42240,MEDINACELI,SORIA,ESPAÑA
1189,70403,ARCOS DE JALÓN,41.2158540,-2.2789980,"Pla. Estación Ferrocarril, S/N",42250,ARCOS DE JALÓN,SORIA,ESPAÑA
1190,70404,SANTA MARÍA DE HUERTA,41.2644210,-2.1775250,"C/ Estación Ferrocarril, S/N",42260,SANTA MARÍA DE HUERTA,SORIA,ESPAÑA
1191,70405,MONREAL DE ARIZA,41.2987670,-2.1104480,"Ctra. Cv-937 - Estación Ferrocarril, S/N",50291,MONREAL DE ARIZA,ZARAGOZA,ESPAÑA
1192,70500,ARIZA,41.3098000,-2.0594110,"C/ Estación Ferrocarril, S/N",50220,ARIZA,ZARAGOZA,ESPAÑA
1193,70501,CETINA,41.2959780,-1.9618110,"C/ Pallares, S/N",50292,CETINA,ZARAGOZA,ESPAÑA
1194,70502,ALHAMA DE ARAGÓN,41.2943980,-1.9044540,"Ctra. Estación Ferrocarril, S/N",50230,ALHAMA DE ARAGÓN,ZARAGOZA,ESPAÑA
1195,70503,BUBIERCA,41.3171900,-1.8551980,"Ctra. N - Ii --- Estación Ferrocarril, S/N",50239,BUBIERCA,ZARAGOZA,ESPAÑA
1196,70504,ATECA,41.3246590,-1.7852680,"Av. San Blas, S/N",50200,ATECA,ZARAGOZA,ESPAÑA
1197,70505,TERRER,41.3222180,-1.7092540,"C/ Estación Ferrocarril, S/N",50293,TERRER,ZARAGOZA,ESPAÑA
1198,70600,CALATAYUD,41.3466920,-1.6386800,"Pl. Estación Ferrocarril, S/N",50300,CALATAYUD,ZARAGOZA,ESPAÑA
1199,70602,EMBID DE JALÓN,41.4216760,-1.5921270,"Ctra. Cv - 901 --- Estación Ferrocarril, S/N",50336,CALATAYUD,ZARAGOZA,ESPAÑA
1200,70603,PARACUELLOS-SABIÑÁN,41.4293100,-1.5674830,"Ctra. Cv-901 - Estación Ferrocarril, S/N",50299,PARACUELLOS DE LA RIBERA,ZARAGOZA,ESPAÑA
1201,70604,SABIÑÁN,41.4439810,-1.5714740,"Ctra. Cv-901 - Estación Ferrocarril, S/N",50299,SABIÑÁN,ZARAGOZA,ESPAÑA
1202,70605,MORÉS,41.4786670,-1.5662380,"Paseo Estación Ferrocarril, S/N",50240,MORÉS,ZARAGOZA,ESPAÑA
1203,70606,PURROY,41.4772360,-1.5404460,"Ctra. Zp-1129 - Estación Ferrocarril, S/N",50247,MORÉS,ZARAGOZA,ESPAÑA
1204,70607,MORATA DE JALÓN,41.4754670,-1.4797210,"C/ Estación Ferrocarril, S/N",50260,MORATA DE JALÓN,ZARAGOZA,ESPAÑA
1205,70700,RICLA-LA ALMUNIA,41.5013940,-1.4034500,"Avda. Goya, S/N",50270,RICLA,ZARAGOZA,ESPAÑA
1206,70701,CALATORAO,41.5286920,-1.3605450,"Av. Doctor Carnicero, S/N ",50280,CALATORAO,ZARAGOZA,ESPAÑA
1207,70702,SALILLAS DE JALÓN,41.5679400,-1.3258480,"Av. Estación Ferrocarril, S/N",50294,SALILLAS DE JALÓN,ZARAGOZA,ESPAÑA
1208,70703,ÉPILA,41.6093300,-1.3010430,"C/ Camino Estación Ferrocarril, S/N",50290,ÉPILA,ZARAGOZA,ESPAÑA
1209,70704,RUEDA DE JALÓN-LUMPIAQUE,41.6388920,-1.2816670,"Ctra. A-2304 - Estación Ferrocarril, S/N",50295,RUEDA DE JALÓN,ZARAGOZA,ESPAÑA
1210,70705,PLASENCIA DE JALÓN,41.6893500,-1.2342370,"Avda. Estación Ferrocarril - Barrio de la Venta, 6",50296,PLASENCIA DE JALÓN,ZARAGOZA,ESPAÑA
1211,70706,GRISÉN,41.7452610,-1.1659240,"Av. Estación Ferrocarril, S/N",50297,GRISÉN,ZARAGOZA,ESPAÑA
1217,71102,EL BURGO DE EBRO,41.5665270,-0.7398390,,,BURGO DE EBRO (EL),ZARAGOZA,ESPAÑA
1218,71103,FUENTES DE EBRO,41.5150650,-0.6186250,"Av. Lorenzo Pardo, S/N",50740,FUENTES DE EBRO,ZARAGOZA,ESPAÑA
1219,71104,PINA DE EBRO,41.4800970,-0.5572770,,,PINA DE EBRO,ZARAGOZA,ESPAÑA
1220,71105,QUINTO,41.4195280,-0.4906730,"C/ Camino de la Estación, S/N",50770,QUINTO,ZARAGOZA,ESPAÑA
1221,71108,LA ZAIDA-SÁSTAGO,41.3205420,-0.4271150,"Av. Zaragoza, S/N",50784,ZAIDA (LA),ZARAGOZA,ESPAÑA
1222,71109,AZAILA,41.2761780,-0.4858230,,,AZAILA,ZARAGOZA,ESPAÑA
1223,71200,LA PUEBLA DE HÍJAR,41.2244000,-0.4385950,"Pla. del Reino de Aragon, 1",44510,PUEBLA DE HÍJAR (LA),TERUEL,ESPAÑA
1224,71201,SAMPER,41.1821830,-0.3687610,"Ctra. Estación Ferrocarril, S/N",44520,SAMPER DE CALANDA,TERUEL,ESPAÑA
1225,71202,ESCATRÓN,41.2126740,-0.2899790,,,CASTELNOU,ZARAGOZA,ESPAÑA
1226,71203,CHIPRANA,41.2315810,-0.1544950,,,CHIPRANA,ZARAGOZA,ESPAÑA
1227,71204,CASPE,41.2397380,-0.0427010,"Pl. Obispo Cubeles, 15",50700,CASPE,ZARAGOZA,ESPAÑA
1228,71205,VAL DE PILAS,41.2300560,0.07014500,"Camino de la Fresa - Estación Ferrocarril, S/N",50709,CASPE,ZARAGOZA,ESPAÑA
1229,71206,FABARA,41.2344050,0.14328400,"Ctra. A - 144 --- Estación de Ferrocarril, S/N",50793,FABARA,ZARAGOZA,ESPAÑA
1230,71207,NONASPE,41.2137880,0.24247200,"Ctra. A-2411 - Estación Ferrocarril, S/N",50794,NONASPE,ZARAGOZA,ESPAÑA
1231,71208,FAIÓ-LA POBLA DE MASSALUCA,41.2250555,0.35110259,"Ctra. Tv - 7231 --- Estació de Ferrocarril, S/N",43783,POBLA DE MASSALUCA (LA),TARRAGONA,ESPAÑA
